[
    {
      "id": 1,
      "name": "Tirumala Tirupathi Devasthanam",
      "lng": "79.34776812108626",
      "lat": "13.684474045692369",
      "image": "./images/Tirupati.jpg"
    },
    {
      "id": 2,
      "name": "Talakona Waterfalls",
      "lng": "79.21586717294993",
      "lat": "13.811760853444207",
      "image": "./images/Talakona Waterfalls.jpg"
    },
    {
      "id": 3,
      "name": "Silathoranam",
      "lng": "79.34055841745388",
      "lat": "13.687600087832763",
      "image": "./images/SILATHORANAM.png"
    },
    {
      "id": 4,
      "name": "Kapila Theertam",
      "lng": "79.33914483438585",
      "lat": "13.702003589703654",
      "image": "./images/KapilaTheertam.jpg"
    },
    {
      "id": 5,
      "name": "Tiruchanur Temple",
      "lng": "79.44973555395666",
      "lat": "13.607910099973934",
      "image": "./images/TIRUCHANUR TEMPLE.jpg"
    }
  ]